{
   "results" : [
      {
         "address_components" : [
            {
               "long_name" : "1702-1720",
               "short_name" : "1702-1720",
               "types" : [ "street_number" ]
            },
            {
               "long_name" : "King Street",
               "short_name" : "King St",
               "types" : [ "route" ]
            },
            {
               "long_name" : "La Crosse",
               "short_name" : "La Crosse",
               "types" : [ "locality", "political" ]
            },
            {
               "long_name" : "La Crosse County",
               "short_name" : "La Crosse County",
               "types" : [ "administrative_area_level_2", "political" ]
            },
            {
               "long_name" : "Wisconsin",
               "short_name" : "WI",
               "types" : [ "administrative_area_level_1", "political" ]
            },
            {
               "long_name" : "United States",
               "short_name" : "US",
               "types" : [ "country", "political" ]
            },
            {
               "long_name" : "54601",
               "short_name" : "54601",
               "types" : [ "postal_code" ]
            },
            {
               "long_name" : "4219",
               "short_name" : "4219",
               "types" : [ "postal_code_suffix" ]
            }
         ],
         "formatted_address" : "1702-1720 King Street, La Crosse, WI 54601, USA",
         "geometry" : {
            "bounds" : {
               "northeast" : {
                  "lat" : 43.8101426,
                  "lng" : -91.22971749999999
               },
               "southwest" : {
                  "lat" : 43.8101151,
                  "lng" : -91.23099449999999
               }
            },
            "location" : {
               "lat" : 43.8101231,
               "lng" : -91.2300051
            },
            "location_type" : "RANGE_INTERPOLATED",
            "viewport" : {
               "northeast" : {
                  "lat" : 43.8114778302915,
                  "lng" : -91.22900701970849
               },
               "southwest" : {
                  "lat" : 43.8087798697085,
                  "lng" : -91.2317049802915
               }
            }
         },
         "place_id" : "Ei8xNzAyLTE3MjAgS2luZyBTdHJlZXQsIExhIENyb3NzZSwgV0kgNTQ2MDEsIFVTQQ",
         "types" : [ "street_address" ]
      },
      {
         "address_components" : [
            {
               "long_name" : "La Crosse",
               "short_name" : "La Crosse",
               "types" : [ "locality", "political" ]
            },
            {
               "long_name" : "La Crosse County",
               "short_name" : "La Crosse County",
               "types" : [ "administrative_area_level_2", "political" ]
            },
            {
               "long_name" : "Wisconsin",
               "short_name" : "WI",
               "types" : [ "administrative_area_level_1", "political" ]
            },
            {
               "long_name" : "United States",
               "short_name" : "US",
               "types" : [ "country", "political" ]
            }
         ],
         "formatted_address" : "La Crosse, WI, USA",
         "geometry" : {
            "bounds" : {
               "northeast" : {
                  "lat" : 43.8984466,
                  "lng" : -91.15708909999999
               },
               "southwest" : {
                  "lat" : 43.7460409,
                  "lng" : -91.2767381
               }
            },
            "location" : {
               "lat" : 43.8013556,
               "lng" : -91.23958069999999
            },
            "location_type" : "APPROXIMATE",
            "viewport" : {
               "northeast" : {
                  "lat" : 43.8984466,
                  "lng" : -91.15708909999999
               },
               "southwest" : {
                  "lat" : 43.7460409,
                  "lng" : -91.2767381
               }
            }
         },
         "place_id" : "ChIJlbMyZ99U-YcRsCI3GRWIqX8",
         "types" : [ "locality", "political" ]
      },
      {
         "address_components" : [
            {
               "long_name" : "54601",
               "short_name" : "54601",
               "types" : [ "postal_code" ]
            },
            {
               "long_name" : "La Crosse",
               "short_name" : "La Crosse",
               "types" : [ "locality", "political" ]
            },
            {
               "long_name" : "Wisconsin",
               "short_name" : "WI",
               "types" : [ "administrative_area_level_1", "political" ]
            },
            {
               "long_name" : "United States",
               "short_name" : "US",
               "types" : [ "country", "political" ]
            }
         ],
         "formatted_address" : "La Crosse, WI 54601, USA",
         "geometry" : {
            "bounds" : {
               "northeast" : {
                  "lat" : 43.870722,
                  "lng" : -91.0308479
               },
               "southwest" : {
                  "lat" : 43.725398,
                  "lng" : -91.27701100000002
               }
            },
            "location" : {
               "lat" : 43.8041647,
               "lng" : -91.15449629999999
            },
            "location_type" : "APPROXIMATE",
            "viewport" : {
               "northeast" : {
                  "lat" : 43.870722,
                  "lng" : -91.0308479
               },
               "southwest" : {
                  "lat" : 43.725398,
                  "lng" : -91.27701100000002
               }
            }
         },
         "place_id" : "ChIJjWYDE5tV-YcRp_5NksPHHAQ",
         "types" : [ "postal_code" ]
      },
      {
         "address_components" : [
            {
               "long_name" : "La Crosse County",
               "short_name" : "La Crosse County",
               "types" : [ "administrative_area_level_2", "political" ]
            },
            {
               "long_name" : "Wisconsin",
               "short_name" : "WI",
               "types" : [ "administrative_area_level_1", "political" ]
            },
            {
               "long_name" : "United States",
               "short_name" : "US",
               "types" : [ "country", "political" ]
            }
         ],
         "formatted_address" : "La Crosse County, WI, USA",
         "geometry" : {
            "bounds" : {
               "northeast" : {
                  "lat" : 44.090584,
                  "lng" : -90.910054
               },
               "southwest" : {
                  "lat" : 43.7248949,
                  "lng" : -91.4251879
               }
            },
            "location" : {
               "lat" : 43.8617023,
               "lng" : -91.13530200000001
            },
            "location_type" : "APPROXIMATE",
            "viewport" : {
               "northeast" : {
                  "lat" : 44.090584,
                  "lng" : -90.910054
               },
               "southwest" : {
                  "lat" : 43.7248949,
                  "lng" : -91.4251879
               }
            }
         },
         "place_id" : "ChIJc94o7oKs_ocRPVvBJQ0YAXo",
         "types" : [ "administrative_area_level_2", "political" ]
      },
      {
         "address_components" : [
            {
               "long_name" : "La Crosse",
               "short_name" : "La Crosse",
               "types" : [ "political" ]
            },
            {
               "long_name" : "United States",
               "short_name" : "US",
               "types" : [ "country", "political" ]
            }
         ],
         "formatted_address" : "La Crosse, USA",
         "geometry" : {
            "bounds" : {
               "northeast" : {
                  "lat" : 44.090584,
                  "lng" : -90.910067
               },
               "southwest" : {
                  "lat" : 43.500438,
                  "lng" : -91.73074699999999
               }
            },
            "location" : {
               "lat" : 43.7051652,
               "lng" : -91.44346900000001
            },
            "location_type" : "APPROXIMATE",
            "viewport" : {
               "northeast" : {
                  "lat" : 44.090584,
                  "lng" : -90.910067
               },
               "southwest" : {
                  "lat" : 43.500438,
                  "lng" : -91.73074699999999
               }
            }
         },
         "place_id" : "ChIJuwQCiIb9-4cRnA493s0hX1Q",
         "types" : [ "political" ]
      },
      {
         "address_components" : [
            {
               "long_name" : "Wisconsin",
               "short_name" : "WI",
               "types" : [ "administrative_area_level_1", "political" ]
            },
            {
               "long_name" : "United States",
               "short_name" : "US",
               "types" : [ "country", "political" ]
            }
         ],
         "formatted_address" : "Wisconsin, USA",
         "geometry" : {
            "bounds" : {
               "northeast" : {
                  "lat" : 47.0807296,
                  "lng" : -86.7639767
               },
               "southwest" : {
                  "lat" : 42.491864,
                  "lng" : -92.88943309999999
               }
            },
            "location" : {
               "lat" : 43.7844397,
               "lng" : -88.7878678
            },
            "location_type" : "APPROXIMATE",
            "viewport" : {
               "northeast" : {
                  "lat" : 47.0807296,
                  "lng" : -86.7639767
               },
               "southwest" : {
                  "lat" : 42.491864,
                  "lng" : -92.88943309999999
               }
            }
         },
         "place_id" : "ChIJr-OEkw_0qFIR1kmG-LjV1fI",
         "types" : [ "administrative_area_level_1", "political" ]
      },
      {
         "address_components" : [
            {
               "long_name" : "United States",
               "short_name" : "US",
               "types" : [ "country", "political" ]
            }
         ],
         "formatted_address" : "United States",
         "geometry" : {
            "bounds" : {
               "northeast" : {
                  "lat" : 71.3867745,
                  "lng" : -66.94539469999999
               },
               "southwest" : {
                  "lat" : 18.9110642,
                  "lng" : 172.4458955
               }
            },
            "location" : {
               "lat" : 37.09024,
               "lng" : -95.712891
            },
            "location_type" : "APPROXIMATE",
            "viewport" : {
               "northeast" : {
                  "lat" : 49.38,
                  "lng" : -66.94
               },
               "southwest" : {
                  "lat" : 25.82,
                  "lng" : -124.39
               }
            }
         },
         "place_id" : "ChIJCzYy5IS16lQRQrfeQ5K5Oxw",
         "types" : [ "country", "political" ]
      }
   ],
   "status" : "OK"
}
